{
"type": "FeatureCollection",
                                                                                
"features": [
{ "type": "Feature", "properties": { "State": "AK", "County": "Anchorage", "City": "Anchorage", "Name": "Northeast", "RegionID": "267847" }, "geometry": null },
{ "type": "Feature", "properties": { "State": "AK", "County": "Anchorage", "City": "Anchorage", "Name": "Rabbit Creek", "RegionID": "267849" }, "geometry": null },
{ "type": "Feature", "properties": { "State": "AK", "County": "Anchorage", "City": "Anchorage", "Name": "Russian Jack Park", "RegionID": "267850" }, "geometry": null },
{ "type": "Feature", "properties": { "State": "AK", "County": "Anchorage", "City": "Anchorage", "Name": "Bayshore-Klatt", "RegionID": "272880" }, "geometry": null },
{ "type": "Feature", "properties": { "State": "AK", "County": "Anchorage", "City": "Anchorage", "Name": "Fire Island", "RegionID": "417076" }, "geometry": null },
{ "type": "Feature", "properties": { "State": "AK", "County": "Anchorage", "City": "Anchorage", "Name": "Chugiak", "RegionID": "44592" }, "geometry": null },
{ "type": "Feature", "properties": { "State": "AK", "County": "Anchorage", "City": "Anchorage", "Name": "Rogers Park", "RegionID": "102543" }, "geometry": null },
{ "type": "Feature", "properties": { "State": "AK", "County": "Anchorage", "City": "Anchorage", "Name": "Bear Valley", "RegionID": "267834" }, "geometry": null },
{ "type": "Feature", "properties": { "State": "AK", "County": "Anchorage", "City": "Anchorage", "Name": "Downtown", "RegionID": "267836" }, "geometry": null },
{ "type": "Feature", "properties": { "State": "AK", "County": "Anchorage", "City": "Anchorage", "Name": "Eklutna Valley", "RegionID": "267838" }, "geometry": null },
{ "type": "Feature", "properties": { "State": "AK", "County": "Anchorage", "City": "Anchorage", "Name": "Midtown", "RegionID": "267845" }, "geometry": null },
{ "type": "Feature", "properties": { "State": "AK", "County": "Anchorage", "City": "Anchorage", "Name": "Girdwood", "RegionID": "24867" }, "geometry": null },
{ "type": "Feature", "properties": { "State": "AK", "County": "Anchorage", "City": "Anchorage", "Name": "Eagle River", "RegionID": "38268" }, "geometry": null },
{ "type": "Feature", "properties": { "State": "AK", "County": "Anchorage", "City": "Anchorage", "Name": "Mountain View", "RegionID": "102412" }, "geometry": null },
{ "type": "Feature", "properties": { "State": "AK", "County": "Anchorage", "City": "Anchorage", "Name": "Abbott Loop", "RegionID": "267830" }, "geometry": null },
{ "type": "Feature", "properties": { "State": "AK", "County": "Anchorage", "City": "Anchorage", "Name": "Scenic Foothills", "RegionID": "267852" }, "geometry": null },
{ "type": "Feature", "properties": { "State": "AK", "County": "Anchorage", "City": "Anchorage", "Name": "Birchwood", "RegionID": "102065" }, "geometry": null },
{ "type": "Feature", "properties": { "State": "AK", "County": "Anchorage", "City": "Anchorage", "Name": "Campbell Park", "RegionID": "267835" }, "geometry": null },
{ "type": "Feature", "properties": { "State": "AK", "County": "Anchorage", "City": "Anchorage", "Name": "North Star", "RegionID": "267846" }, "geometry": null },
{ "type": "Feature", "properties": { "State": "AK", "County": "Anchorage", "City": "Anchorage", "Name": "Sand Lake", "RegionID": "267851" }, "geometry": null },
{ "type": "Feature", "properties": { "State": "AK", "County": "Anchorage", "City": "Anchorage", "Name": "South Addition", "RegionID": "267853" }, "geometry": null },
{ "type": "Feature", "properties": { "State": "AK", "County": "Anchorage", "City": "Anchorage", "Name": "Taku-Campbell", "RegionID": "275659" }, "geometry": null },
{ "type": "Feature", "properties": { "State": "AK", "County": "Anchorage", "City": "Anchorage", "Name": "South Fork", "RegionID": "267854" }, "geometry": null },
{ "type": "Feature", "properties": { "State": "AK", "County": "Anchorage", "City": "Anchorage", "Name": "Turnagain Arm", "RegionID": "275783" }, "geometry": null },
{ "type": "Feature", "properties": { "State": "AK", "County": "Anchorage", "City": "Anchorage", "Name": "University Area", "RegionID": "275810" }, "geometry": null },
{ "type": "Feature", "properties": { "State": "AK", "County": "Anchorage", "City": "Anchorage", "Name": "Huffman-O'Malley", "RegionID": "276385" }, "geometry": null },
{ "type": "Feature", "properties": { "State": "AK", "County": "Anchorage", "City": "Anchorage", "Name": "Spenard", "RegionID": "102588" }, "geometry": null },
{ "type": "Feature", "properties": { "State": "AK", "County": "Anchorage", "City": "Anchorage", "Name": "Airport Heights", "RegionID": "267831" }, "geometry": null },
{ "type": "Feature", "properties": { "State": "AK", "County": "Anchorage", "City": "Anchorage", "Name": "Basher", "RegionID": "267832" }, "geometry": null },
{ "type": "Feature", "properties": { "State": "AK", "County": "Anchorage", "City": "Anchorage", "Name": "Mid-Hillside", "RegionID": "267844" }, "geometry": null },
{ "type": "Feature", "properties": { "State": "AK", "County": "Anchorage", "City": "Anchorage", "Name": "Fairview", "RegionID": "267839" }, "geometry": null },
{ "type": "Feature", "properties": { "State": "AK", "County": "Anchorage", "City": "Anchorage", "Name": "Glen Alps", "RegionID": "267840" }, "geometry": null },
{ "type": "Feature", "properties": { "State": "AK", "County": "Anchorage", "City": "Anchorage", "Name": "Government Hill", "RegionID": "267841" }, "geometry": null },
{ "type": "Feature", "properties": { "State": "AK", "County": "Anchorage", "City": "Anchorage", "Name": "Hillside East", "RegionID": "267842" }, "geometry": null },
{ "type": "Feature", "properties": { "State": "AK", "County": "Anchorage", "City": "Anchorage", "Name": "Tudor Area", "RegionID": "267856" }, "geometry": null },
{ "type": "Feature", "properties": { "State": "AK", "County": "Anchorage", "City": "Anchorage", "Name": "Turnagain", "RegionID": "267857" }, "geometry": null },
{ "type": "Feature", "properties": { "State": "AK", "County": "Anchorage", "City": "Anchorage", "Name": "Old Seward-Oceanview", "RegionID": "274891" }, "geometry": null },
{ "type": "Feature", "properties": { "State": "AK", "County": "Anchorage", "City": "Anchorage", "Name": "Portage Valley", "RegionID": "275077" }, "geometry": null },
{ "type": "Feature", "properties": { "State": "AK", "County": "Fairbanks North Star", "City": "Fairbanks", "Name": "Bjerremark", "RegionID": "102066" }, "geometry": null }
]
}
